,City,Country,Lat,Lng,Max Temp,Humidity,Cloudiness,Wind Speed,Current Description
0,Saint-Philippe,RE,-21.3585,55.7679,74.79,81,47,8.19,scattered clouds
1,Batagay,RU,67.6333,134.6333,-21.77,97,100,2.01,overcast clouds
2,Hilo,US,19.7297,-155.09,74.62,75,7,1.01,clear sky
3,Cockburn Town,TC,21.4612,-71.1419,79.34,73,98,11.39,overcast clouds
4,Belle Fourche,US,44.6714,-103.8522,53.11,38,100,5.55,overcast clouds
5,Nouakchott,MR,18.0858,-15.9785,64.33,33,99,15.86,overcast clouds
6,Hermanus,ZA,-34.4187,19.2345,60.91,85,84,8.37,light rain
7,Clyde River,CA,70.4692,-68.5914,-0.17,78,100,5.75,overcast clouds
8,Jamestown,US,42.097,-79.2353,33.39,93,90,6.91,overcast clouds
9,Santa Isabel,BR,-23.3156,-46.2214,78.58,90,100,6.71,overcast clouds
10,Roald,NO,62.5833,6.1333,36.09,87,90,11.5,light rain
11,Bambous Virieux,MU,-20.3428,57.7575,78.22,88,20,4.61,few clouds
12,Izhma,RU,65.0083,53.9113,-13.5,100,79,2.46,broken clouds
13,Talara,PE,-4.5772,-81.2719,67.69,81,100,14.76,overcast clouds
14,Carauari,BR,-4.8828,-66.8958,74.1,97,96,2.42,overcast clouds
15,Ushuaia,AR,-54.8,-68.3,42.46,75,75,25.32,light intensity drizzle
16,Adelaide,AU,-34.9333,138.6,92.16,23,0,16.11,clear sky
17,Kuito,AO,-12.3833,16.9333,59.02,98,100,2.82,overcast clouds
18,Vardo,NO,70.3705,31.1107,22.86,82,98,25.68,overcast clouds
19,Takoradi,GH,4.8845,-1.7554,79.0,86,75,7.29,light rain
20,Rikitea,PF,-23.1203,-134.9692,76.44,78,6,21.05,light rain
21,Palmerston,AU,-12.486,130.9833,96.93,55,40,3.44,scattered clouds
22,Bayangol,RU,50.6977,103.4656,9.63,73,82,1.74,broken clouds
23,Mar Del Plata,AR,-38.0023,-57.5575,57.87,89,75,11.01,broken clouds
24,Atuona,PF,-9.8,-139.0333,79.0,76,3,22.08,clear sky
25,Batman,TR,37.8874,41.1322,46.2,100,75,2.3,fog
26,Bambanglipuro,ID,-7.95,110.2833,83.59,69,97,6.51,overcast clouds
27,Linhares,BR,-19.3911,-40.0722,74.59,95,36,3.22,scattered clouds
28,East London,ZA,-33.0153,27.9116,67.08,89,100,5.55,light rain
29,Port Lincoln,AU,-34.7333,135.8667,81.36,38,93,8.19,overcast clouds
30,Severo-Kurilsk,RU,50.6789,156.125,31.8,64,96,27.85,overcast clouds
31,Avarua,CK,-21.2078,-159.775,80.65,61,20,16.11,few clouds
32,Lebu,CL,-37.6167,-73.65,53.67,87,87,17.11,overcast clouds
33,Bluff,NZ,-46.6,168.3333,61.81,75,92,6.04,overcast clouds
34,Khatanga,RU,71.9667,102.5,-32.48,100,92,2.59,overcast clouds
35,Saskylakh,RU,71.9167,114.0833,-28.35,100,88,4.14,overcast clouds
36,Port Alfred,ZA,-33.5906,26.891,66.29,90,100,11.92,light rain
37,Barrow,US,71.2906,-156.7887,-18.38,76,1,10.36,clear sky
38,Grants Pass,US,42.439,-123.3284,51.91,89,90,0.0,overcast clouds
39,Vaini,TO,-21.2,-175.2,84.36,58,20,11.5,few clouds
40,Tornio,FI,65.8481,24.1466,-2.18,93,84,6.8,broken clouds
41,Vestmanna,FO,62.1564,-7.1664,31.12,74,90,3.44,overcast clouds
42,Zhigansk,RU,66.7697,123.3711,-15.74,98,100,0.96,overcast clouds
43,Sciacca,IT,37.5082,13.0881,53.1,61,65,20.69,broken clouds
44,Cape Town,ZA,-33.9258,18.4232,63.09,85,90,6.91,light rain
45,Mahebourg,MU,-20.4081,57.7,78.26,88,20,4.61,few clouds
46,New Norfolk,AU,-42.7826,147.0587,81.66,27,4,3.0,clear sky
47,Sao Filipe,CV,14.8961,-24.4956,74.73,70,100,13.11,overcast clouds
48,Albany,US,42.6001,-73.9662,28.22,78,4,5.86,clear sky
49,Sioux Lookout,CA,50.1001,-91.917,26.98,93,90,6.91,light snow
50,Hithadhoo,MV,-0.6,73.0833,81.54,77,76,11.43,broken clouds
51,Lampazos De Naranjo,MX,27.0167,-100.5167,62.24,53,20,9.6,few clouds
52,Klaksvik,FO,62.2266,-6.589,32.92,58,100,6.2,overcast clouds
53,Qaanaaq,GL,77.484,-69.3632,10.38,61,100,3.53,overcast clouds
54,Moose Factory,CA,51.2585,-80.6094,12.18,92,90,4.61,overcast clouds
55,Peniche,PT,39.3558,-9.3811,56.62,78,83,0.89,broken clouds
56,Lompoc,US,34.6391,-120.4579,64.22,87,1,3.44,clear sky
57,Punta Arenas,CL,-53.15,-70.9167,46.51,71,40,8.05,scattered clouds
58,Mataura,NZ,-46.1927,168.8643,61.48,45,93,6.98,overcast clouds
59,Meulaboh,ID,4.1363,96.1285,77.7,84,99,1.39,light rain
60,Seoul,KR,37.5683,126.9778,47.77,93,90,6.91,light rain
61,Hervey Bay,AU,-25.2986,152.8535,83.03,74,89,9.51,overcast clouds
62,Maun,BW,-19.9833,23.4167,73.36,73,0,5.75,clear sky
63,Lavrentiya,RU,65.5833,-171.0,-12.01,91,3,8.61,clear sky
64,Chokurdakh,RU,70.6333,147.9167,-13.74,99,100,4.03,overcast clouds
65,Codrington,AU,-38.2667,141.9667,79.11,34,10,13.6,clear sky
66,Kaitangata,NZ,-46.2817,169.8464,60.93,78,98,10.25,overcast clouds
67,Fort Nelson,CA,58.8053,-122.7002,4.59,85,90,4.61,overcast clouds
68,Santa Cruz,BO,-17.8,-63.1667,72.86,94,90,2.3,overcast clouds
69,Filingue,NE,14.3521,3.3168,73.76,12,100,9.95,overcast clouds
70,Tasiilaq,GL,65.6145,-37.6368,21.36,92,92,4.72,overcast clouds
71,Upernavik,GL,72.7868,-56.1549,21.63,93,100,3.02,overcast clouds
72,Krutikha,RU,53.9599,81.2093,12.92,85,100,6.87,overcast clouds
73,Ibra,OM,22.6906,58.5334,63.7,86,0,1.63,clear sky
74,Alofi,NU,-19.0595,-169.9187,82.29,54,40,11.5,scattered clouds
75,Tongren,CN,27.7172,109.1853,56.77,63,2,3.2,clear sky
76,Coihaique,CL,-45.5752,-72.0662,48.81,71,0,2.3,clear sky
77,Leningradskiy,RU,69.3833,178.4167,-21.93,95,40,8.57,scattered clouds
78,Zongozotla,MX,19.9833,-97.7333,58.32,97,91,1.14,overcast clouds
79,Berlevag,NO,70.8578,29.0864,19.22,88,62,29.35,broken clouds
80,Skerries,IE,53.5828,-6.1083,51.19,100,100,20.4,overcast clouds
81,Kapaa,US,22.0752,-159.319,80.58,77,90,7.0,light rain
82,Ribeira Grande,PT,38.5167,-28.7,61.65,65,10,10.0,clear sky
83,Busselton,AU,-33.65,115.3333,66.09,44,69,8.81,broken clouds
84,Georgetown,MY,5.4112,100.3354,82.35,81,20,3.0,few clouds
85,Luderitz,NA,-26.6481,15.1594,59.34,82,4,11.25,clear sky
86,Guerrero Negro,MX,27.9769,-114.0611,64.98,73,0,9.53,clear sky
87,Tuktoyaktuk,CA,69.4541,-133.0374,-16.6,76,90,16.11,light snow
88,Turinsk,RU,58.0458,63.696,32.2,96,100,5.91,overcast clouds
89,Bara,NG,10.3744,10.7288,69.21,23,28,5.21,scattered clouds
90,Castro,BR,-24.7911,-50.0119,62.24,89,64,3.38,broken clouds
91,Ardesen,TR,41.1911,40.9875,69.76,57,100,8.81,light rain
92,Dikson,RU,73.5069,80.5464,-12.96,96,100,13.62,light snow
93,Duncan,US,34.5023,-97.9578,60.39,44,1,4.61,clear sky
94,Balabac,PH,7.9868,117.0645,83.43,72,100,8.34,overcast clouds
95,Yellowknife,CA,62.456,-114.3525,-18.58,83,20,5.75,few clouds
96,Bandarbeyla,SO,9.4942,50.8122,75.81,74,8,16.91,clear sky
97,Chuy,UY,-33.6971,-53.4616,64.85,89,100,17.38,overcast clouds
98,Provideniya,RU,64.3833,-173.3,-4.65,65,0,11.18,clear sky
99,Norman Wells,CA,65.282,-126.8329,-25.56,68,20,5.75,few clouds
100,Amapa,BR,1.0,-52.0,71.89,99,100,2.15,overcast clouds
101,Bellegarde-Sur-Valserine,FR,46.1079,5.8242,27.72,95,16,1.68,few clouds
102,Hobart,AU,-42.8794,147.3294,82.02,34,20,4.0,few clouds
103,Kosh-Agach,RU,50.0,88.6667,8.87,80,10,2.33,clear sky
104,Aranos,NA,-24.1333,19.1167,61.7,40,0,11.74,clear sky
105,Susanville,US,40.4163,-120.653,48.85,62,31,1.66,scattered clouds
106,Awjilah,LY,29.1081,21.2869,57.43,36,10,8.97,clear sky
107,Praia,CV,14.9215,-23.5087,73.94,68,75,23.02,broken clouds
108,Villafranca Di Verona,IT,45.3524,10.8402,41.0,57,0,6.91,clear sky
109,Narsaq,GL,60.9167,-46.05,32.22,99,100,7.29,snow
110,Seguela,CI,7.9611,-6.6731,73.49,79,10,5.39,clear sky
111,Nemuro,JP,43.3236,145.575,48.63,82,15,6.93,few clouds
112,Tiksi,RU,71.6872,128.8694,-21.73,99,98,6.29,overcast clouds
113,Vila Velha,BR,-20.3297,-40.2925,78.94,88,40,5.99,scattered clouds
114,Derzhavinsk,KZ,51.1,66.3167,6.93,97,20,4.52,few clouds
115,Swan Hill,AU,-35.3378,143.5544,86.0,28,61,6.58,broken clouds
116,Nouadhibou,MR,20.931,-17.0347,60.78,82,7,20.71,clear sky
117,Tazovskiy,RU,67.4667,78.7,-8.37,96,99,8.23,overcast clouds
118,Thompson,CA,55.7435,-97.8558,23.16,80,40,14.97,scattered clouds
119,Vauvert,FR,43.7,4.2833,37.65,64,0,8.05,clear sky
120,Vredendal,ZA,-31.6683,18.5012,59.5,89,75,4.0,broken clouds
121,Ayan,RU,56.45,138.1667,14.13,61,100,6.67,overcast clouds
122,Maldonado,UY,-34.6667,-54.9167,64.22,94,100,21.14,overcast clouds
123,Kisangani,CD,0.5167,25.2,69.75,99,100,3.24,light rain
124,Ancud,CL,-41.8697,-73.8203,51.33,87,19,1.45,few clouds
125,Saint George,US,37.1041,-113.5841,62.55,34,1,0.0,clear sky
126,Umm Lajj,SA,25.0213,37.2685,82.09,35,2,8.86,clear sky
127,Tautira,PF,-17.7333,-149.15,77.02,76,100,20.0,light rain
128,Toda Raisingh,IN,26.0252,75.4849,65.98,50,100,3.29,overcast clouds
129,Fortuna,US,40.5982,-124.1573,50.36,68,62,3.94,broken clouds
130,Praia Da Vitoria,PT,38.7333,-27.0667,55.76,94,40,7.56,scattered clouds
131,Ugoofaaru,MV,5.6667,73.0,81.55,77,97,15.75,moderate rain
132,Mildura,AU,-34.2,142.15,90.07,18,13,5.75,few clouds
133,Shakawe,BW,-18.3667,21.85,70.5,63,72,3.27,broken clouds
134,Asfi,MA,32.2994,-9.2372,57.49,82,0,10.58,clear sky
135,Tete,MZ,-16.1564,33.5867,75.29,57,0,4.61,clear sky
136,Margate,GB,51.3813,1.3862,44.69,86,100,1.99,overcast clouds
137,Arraial Do Cabo,BR,-22.9661,-42.0278,74.3,91,7,22.59,clear sky
138,Fonte Boa,BR,-2.4959,-66.2662,73.98,97,80,2.64,broken clouds
139,Idah,NG,7.1065,6.7342,75.29,87,65,2.28,broken clouds
140,Sorong,ID,-0.8833,131.25,84.74,70,94,8.9,moderate rain
141,Grindavik,IS,63.8424,-22.4338,36.07,87,75,19.57,light intensity drizzle
142,Batemans Bay,AU,-35.7167,150.1833,84.2,66,14,10.18,few clouds
143,Nivala,FI,63.9167,24.9667,13.1,88,78,7.9,broken clouds
144,Jablah,SY,35.3614,35.9256,69.53,49,100,7.25,overcast clouds
145,Loiza,PR,18.4313,-65.8802,80.58,85,40,5.75,scattered clouds
146,La Ronge,CA,55.1001,-105.2842,21.45,63,1,8.05,clear sky
147,Bengkulu,ID,-3.8004,102.2655,77.7,80,100,11.18,overcast clouds
148,Marsa Matruh,EG,31.3525,27.2453,66.4,88,0,6.91,clear sky
149,Bredasdorp,ZA,-34.5322,20.0403,59.29,82,20,5.48,light rain
150,Lumberton,US,34.6182,-79.0086,38.21,41,44,2.53,scattered clouds
151,Mahanoro,MG,-19.9,48.8,73.78,86,70,3.8,broken clouds
152,Ostrovnoy,RU,68.0531,39.5131,8.94,90,100,5.19,overcast clouds
153,Khandagayty,RU,50.7333,92.05,10.6,92,80,3.76,broken clouds
154,Parkersburg,US,39.2667,-81.5615,37.0,65,90,4.61,overcast clouds
155,Dobroye,RU,52.8678,39.8109,46.71,81,100,20.76,overcast clouds
156,Namtsy,RU,62.7161,129.6658,-23.69,98,99,1.21,overcast clouds
157,Gdynia,PL,54.5189,18.5319,32.04,85,0,10.36,clear sky
158,Saint-Joseph,RE,-21.3667,55.6167,73.78,78,23,8.23,few clouds
159,Kruisfontein,ZA,-34.0033,24.7314,61.88,84,22,6.42,few clouds
160,Sangre Grande,TT,10.5835,-61.1177,79.05,83,71,6.85,broken clouds
161,Broken Hill,AU,-31.95,141.4333,85.71,30,75,6.91,broken clouds
162,Talnakh,RU,69.4865,88.3972,-11.79,92,100,2.33,overcast clouds
163,Lagos,NG,6.5833,3.75,79.12,88,60,2.82,broken clouds
164,Constitucion,CL,-35.3333,-72.4167,52.27,92,4,8.72,clear sky
165,Massaguet,TD,12.4755,15.4365,77.09,14,65,11.45,broken clouds
166,Khash,IR,28.2211,61.2158,51.84,47,89,1.25,overcast clouds
167,Victoria,HK,22.2855,114.1577,75.04,57,0,5.99,clear sky
168,Hasaki,JP,35.7333,140.8333,59.29,62,94,20.6,overcast clouds
169,Kumluca,TR,36.3703,30.2869,68.68,84,100,9.37,overcast clouds
170,Birin,NP,26.8865,88.0718,57.88,49,50,2.06,scattered clouds
171,Butaritari,KI,3.0707,172.7902,81.07,80,66,9.73,light rain
172,Sangar,RU,63.9242,127.4739,-14.82,95,100,3.62,overcast clouds
173,Lasa,IT,46.6166,10.7002,27.48,94,55,7.56,broken clouds
174,Suriapet,IN,17.15,79.6167,74.25,75,94,2.66,overcast clouds
175,Kawalu,ID,-7.3817,108.2082,84.94,57,55,3.38,broken clouds
176,Poum,NC,-20.2333,164.0167,81.57,79,27,18.45,scattered clouds
177,Puerto Ayora,EC,-0.7393,-90.3518,69.55,92,67,7.0,broken clouds
178,Grand-Santi,GF,4.25,-54.3833,72.34,99,74,2.24,broken clouds
179,Sitka,US,57.0531,-135.33,39.09,70,90,17.27,light rain
180,Kinsale,IE,51.7075,-8.5306,49.37,87,40,6.91,scattered clouds
181,Nikolskoye,RU,59.7035,30.7861,26.4,96,100,7.63,light snow
182,Manokwari,ID,-0.8667,134.0833,82.08,80,100,5.64,light rain
183,Anadyr,RU,64.75,177.4833,-3.5,83,40,0.0,light snow
184,Owerri,NG,5.4833,7.0304,74.35,96,76,4.36,light rain
185,Longyearbyen,SJ,78.2186,15.6401,10.24,61,20,18.41,few clouds
186,Kieta,PG,-6.2167,155.6333,85.26,69,100,5.79,overcast clouds
187,Caravelas,BR,-17.7125,-39.2481,76.05,91,96,9.1,overcast clouds
188,Draguignan,FR,43.5333,6.4667,42.37,58,7,4.61,clear sky
189,San Quintin,MX,30.4833,-115.95,61.39,82,0,6.64,clear sky
190,Sabang,ID,5.8933,95.3214,75.81,95,100,11.32,moderate rain
191,Stevens Point,US,44.5236,-89.5746,32.34,87,90,3.44,overcast clouds
192,Malysheva,RU,57.1185,61.4035,32.09,96,100,5.66,overcast clouds
193,Gerzat,FR,45.8243,3.144,29.28,100,0,1.14,clear sky
194,Cordoba,AR,-31.4135,-64.1811,66.24,72,0,8.05,clear sky
195,Carnarvon,AU,-24.8667,113.6333,78.87,57,0,23.02,clear sky
196,Iracoubo,GF,5.4802,-53.2011,76.75,91,47,6.98,scattered clouds
197,Mayo,US,38.8876,-76.5119,41.0,70,1,1.01,clear sky
198,Torbay,CA,47.6666,-52.7314,46.27,97,90,19.57,fog
199,Nuristan,AF,35.3,70.8333,18.9,36,3,10.07,clear sky
200,Sobolevo,RU,54.4299,31.8996,33.84,92,100,20.2,snow
201,Mount Isa,AU,-20.7333,139.5,92.97,13,41,8.05,scattered clouds
202,Leh,IN,34.1667,77.5833,17.53,56,99,1.83,overcast clouds
203,Alyangula,AU,-13.8483,136.4192,89.47,70,29,8.05,scattered clouds
204,Soyo,AO,-6.1349,12.3689,77.45,89,100,1.03,heavy intensity rain
205,Ilulissat,GL,69.2167,-51.1,30.22,93,75,3.44,light snow
206,Sal Rei,CV,16.1833,-22.9167,70.36,68,99,22.84,overcast clouds
207,Concarneau,FR,47.875,-3.9225,50.77,84,60,8.9,broken clouds
208,Moroto,UG,2.5345,34.6666,66.42,75,98,7.11,overcast clouds
209,Airai,TL,-8.9266,125.4092,76.44,50,52,2.13,broken clouds
210,Tambo,PE,-14.8,-73.9167,37.47,70,59,1.07,broken clouds
211,Port Hardy,CA,50.6996,-127.4199,48.38,87,90,3.44,light rain
212,Tirlyanskiy,RU,54.2109,58.5806,29.17,96,100,3.11,overcast clouds
213,Methoni,GR,36.8197,21.7049,57.22,55,90,34.69,overcast clouds
214,Bairiki,KI,1.3292,172.9752,87.8,58,20,13.8,few clouds
215,Newport News,US,36.9788,-76.428,39.97,78,1,3.44,clear sky
216,Khandbari,NP,27.3747,87.2039,62.73,56,41,0.67,scattered clouds
217,Tshikapa,CD,-6.4167,20.8,67.12,95,100,0.76,overcast clouds
218,Cayenne,GF,4.9333,-52.3333,77.09,91,90,2.3,overcast clouds
219,Esperance,AU,-33.8667,121.9,64.24,58,97,11.52,overcast clouds
220,Luganville,VU,-15.5333,167.1667,84.78,71,88,6.46,moderate rain
221,Pozzallo,IT,36.7305,14.8499,45.25,60,51,26.46,broken clouds
222,Saldanha,ZA,-33.0117,17.9442,59.05,85,60,5.06,broken clouds
223,Adrar,MR,20.5022,-10.0711,59.9,31,85,11.21,overcast clouds
224,Ponta Do Sol,PT,32.6667,-17.1,62.71,69,57,3.38,broken clouds
225,Netanya,IL,32.3329,34.8599,73.04,40,48,4.54,scattered clouds
226,Kaeo,NZ,-35.1,173.7833,72.36,56,19,10.07,few clouds
227,Plouzane,FR,48.3833,-4.6167,50.05,93,75,4.61,broken clouds
228,Qena,EG,26.1615,32.7183,60.91,27,42,3.11,scattered clouds
229,Acatlan,MX,20.15,-98.45,49.24,85,91,3.69,overcast clouds
230,Aswan,EG,24.0934,32.907,67.3,39,0,6.91,clear sky
231,Puerto Colombia,CO,10.9878,-74.9547,82.49,83,96,23.42,overcast clouds
232,Coahuayana,MX,18.7333,-103.6833,81.88,77,34,3.67,scattered clouds
233,Wufeng,CN,27.45,104.8333,40.89,38,10,2.13,clear sky
234,Abalak,RU,58.1286,68.5944,25.63,97,87,5.26,overcast clouds
235,Canto Do Buriti,BR,-8.11,-42.9444,74.05,80,90,1.9,overcast clouds
236,Half Moon Bay,US,37.4636,-122.4286,64.02,77,1,5.99,clear sky
237,Alice Springs,AU,-23.7,133.8833,90.95,16,0,6.91,clear sky
238,Qaqortoq,GL,60.7167,-46.0333,32.5,97,100,10.4,snow
239,Oga,IT,46.4631,10.347,20.08,98,79,5.66,broken clouds
240,Sao Joao Da Barra,BR,-21.6403,-41.0511,74.79,94,91,14.14,overcast clouds
241,Itarema,BR,-2.9248,-39.9167,80.6,78,41,13.65,scattered clouds
242,Palu,ID,-0.8917,119.8707,90.39,53,72,3.62,broken clouds
243,Albemarle,US,35.3501,-80.2001,37.58,86,1,0.0,clear sky
244,Souillac,MU,-20.5167,57.5167,79.36,88,20,4.61,few clouds
245,Aksarka,RU,66.5606,67.7975,-0.83,98,100,5.59,overcast clouds
246,Corrente,BR,-3.7367,-43.3394,74.68,89,9,2.15,clear sky
247,Kimbe,PG,-5.5502,150.1429,83.89,78,100,3.58,moderate rain
248,Haukipudas,FI,65.1765,25.3523,5.05,86,83,10.04,broken clouds
249,Mahon,ES,39.8885,4.2658,50.56,66,75,16.11,broken clouds
250,Faanui,PF,-16.4833,-151.75,80.87,76,100,15.7,light rain
251,Chapais,CA,49.7834,-74.8492,15.58,97,95,2.19,light snow
252,Beringen,BE,51.0507,5.2216,39.72,91,90,6.91,light rain
253,Kenai,US,60.5544,-151.2583,21.15,84,1,13.8,clear sky
254,San Juan De Abajo,MX,20.8167,-105.1833,78.48,78,1,0.0,clear sky
255,Laguna,US,38.421,-121.4238,63.23,82,1,0.0,clear sky
256,Lorengau,PG,-2.0226,147.2712,85.21,71,100,9.8,overcast clouds
257,Srikakulam,IN,18.3,83.9,74.32,59,27,5.5,scattered clouds
258,Kodiak,US,57.79,-152.4072,33.31,86,90,20.71,light snow
259,San Jose,US,37.3394,-121.895,63.9,66,1,0.0,clear sky
260,Bacolod,PH,10.6667,122.95,85.77,71,58,9.28,broken clouds
261,Araouane,ML,18.9048,-3.5265,65.66,29,1,12.01,clear sky
262,Dingle,PH,10.9995,122.6711,86.13,70,100,8.25,overcast clouds
263,Muros,ES,42.7762,-9.0603,52.84,95,100,5.57,overcast clouds
264,Lagoa,PT,39.05,-27.9833,60.3,65,38,8.48,scattered clouds
265,Alice Town,BS,25.7167,-79.3,70.25,65,0,11.68,clear sky
266,Mayor Pablo Lagerenza,PY,-19.9309,-60.7718,67.55,83,92,3.31,overcast clouds
267,Malang,ID,-7.9797,112.6304,75.36,63,89,2.01,overcast clouds
268,Alihe,CN,50.5667,123.7167,13.26,64,14,3.0,few clouds
269,Westport,US,41.1415,-73.3579,35.82,73,20,1.99,few clouds
270,Chitrakonda,IN,18.1167,82.0833,70.25,65,46,2.93,scattered clouds
271,Senanga,ZM,-16.1167,23.2667,68.41,77,100,2.42,overcast clouds
272,Sao Miguel,BR,-5.4667,-35.3667,81.37,81,90,11.23,overcast clouds
273,Primorskiy,RU,43.0983,131.5875,22.59,94,100,15.93,snow
274,Balagansk,RU,54.0103,103.0544,23.2,94,100,8.14,light snow
275,Mangrol,IN,21.1167,70.1167,74.12,47,100,11.36,overcast clouds
276,Khuzdar,PK,27.7384,66.6434,54.12,34,0,2.95,clear sky
277,Gimli,CA,50.6336,-96.9907,29.43,86,47,5.75,scattered clouds
278,Koumac,NC,-20.5667,164.2833,85.03,65,58,6.29,broken clouds
279,Goderich,CA,43.7501,-81.7165,35.92,64,100,10.36,overcast clouds
280,Trairi,BR,-3.2778,-39.2689,80.37,80,38,10.02,scattered clouds
281,Chihuahua,MX,28.5,-106.0,52.63,49,90,4.74,overcast clouds
282,Colwyn Bay,GB,53.2948,-3.7267,51.82,99,100,11.01,overcast clouds
283,Nizhniy Kuranakh,RU,58.8353,125.4869,0.95,94,99,1.68,overcast clouds
284,Abancay,PE,-13.6339,-72.8814,60.89,81,100,2.59,overcast clouds
285,Broome,US,42.2506,-75.833,26.47,74,1,1.01,clear sky
286,Contamana,PE,-7.3333,-75.0167,72.63,98,100,5.7,overcast clouds
287,Richards Bay,ZA,-28.783,32.0377,72.32,84,100,8.9,overcast clouds
288,Marquette,US,46.5333,-87.6335,27.77,86,100,3.76,overcast clouds
289,Grafton,US,42.207,-71.6856,30.47,66,1,1.01,clear sky
290,Vestmannaeyjar,IS,63.4427,-20.2734,36.57,86,100,24.29,overcast clouds
291,Khani,GE,41.9563,42.9566,54.97,49,100,11.79,overcast clouds
292,Khovu-Aksy,RU,51.1333,93.6,10.76,86,75,3.02,broken clouds
293,Gradinari,RO,44.3922,25.8156,39.9,82,100,4.09,overcast clouds
294,Turukhansk,RU,65.8167,87.9833,4.35,94,100,16.11,light snow
295,Aasiaat,GL,68.7098,-52.8699,31.44,99,100,3.87,light snow
296,San Patricio,US,28.017,-97.5169,61.84,71,99,6.8,overcast clouds
297,Phulabani,IN,20.4667,84.2333,67.33,51,29,1.79,scattered clouds
298,Merauke,ID,-8.4667,140.3333,87.62,65,100,7.85,overcast clouds
299,Saint Anthony,US,45.0205,-93.218,41.95,69,1,1.01,clear sky
300,Acapulco,MX,16.8634,-99.8901,80.42,78,1,3.44,clear sky
301,Birjand,IR,32.8663,59.2211,37.87,65,0,4.61,clear sky
302,Naze,JP,28.3667,129.4833,74.32,70,10,16.51,clear sky
303,Prachuap Khiri Khan,TH,12.2167,99.75,78.69,82,100,6.8,overcast clouds
304,Pisco,PE,-13.7,-76.2167,64.45,82,0,13.8,clear sky
305,Maniitsoq,GL,65.4167,-52.9,32.4,95,100,15.79,snow
306,Amahai,ID,-3.3333,128.9167,85.71,67,94,5.84,overcast clouds
307,Mlonggo,ID,-6.5333,110.7,85.89,64,75,2.39,broken clouds
308,Aksu,CN,41.1231,80.2644,27.12,45,32,0.65,scattered clouds
309,Ambilobe,MG,-13.2,49.05,74.61,81,8,4.47,clear sky
310,Umm Kaddadah,SD,13.6017,26.6876,74.75,31,6,15.86,clear sky
311,San Cristobal,VE,7.7669,-72.225,69.98,94,85,1.39,overcast clouds
312,Amuntai,ID,-2.4177,115.2494,83.17,74,94,2.89,overcast clouds
313,Mehamn,NO,71.0357,27.8492,16.88,87,57,17.52,broken clouds
314,Townsville,AU,-19.25,146.8,83.28,74,75,14.97,broken clouds
315,Moyo,UG,3.6609,31.7247,66.04,85,100,1.74,overcast clouds
316,Monywa,MM,22.1167,95.1333,73.92,64,56,11.18,broken clouds
317,Kavaratti,IN,10.5669,72.642,81.41,77,100,18.19,overcast clouds
318,Storforshei,NO,66.4043,14.5233,19.65,92,100,5.26,overcast clouds
319,Sinnamary,GF,5.3833,-52.95,77.31,90,52,7.29,broken clouds
320,Am Timan,TD,11.0297,20.2827,75.76,24,69,5.95,broken clouds
321,Ihosy,MG,-22.4,46.1167,66.52,82,47,4.83,scattered clouds
322,Caceres,ES,39.522,-6.3748,37.8,88,56,1.48,broken clouds
323,Lalmohan,BD,22.3384,90.7419,72.52,59,11,9.01,few clouds
324,Batagay-Alyta,RU,67.8006,130.4114,-24.48,97,98,3.85,overcast clouds
325,Monrovia,LR,6.3005,-10.7969,79.0,82,100,5.68,light rain
326,Novodolinskiy,KZ,49.705,72.7047,21.78,80,100,4.27,overcast clouds
327,Coos Bay,US,43.3665,-124.2179,54.95,100,90,0.0,fog
328,Teya,RU,60.3778,92.6267,17.15,88,100,13.96,overcast clouds
329,Great Falls,US,47.5002,-111.3008,43.66,73,1,1.01,clear sky
330,Kilindoni,TZ,-7.9139,39.6668,80.29,79,21,6.64,light rain
331,Mananara,MG,-16.1667,49.7667,75.15,88,86,3.02,light rain
332,Keetmanshoop,NA,-26.5833,18.1333,57.63,49,0,9.71,clear sky
333,Pevek,RU,69.7008,170.3133,-8.63,99,69,4.09,broken clouds
334,Cidreira,BR,-30.1811,-50.2056,70.65,69,27,12.93,scattered clouds
335,Burnie,AU,-41.0667,145.9167,63.09,65,4,8.99,clear sky
336,Urucara,BR,-2.5364,-57.76,77.36,86,98,1.77,overcast clouds
337,Atar,MR,20.5169,-13.0499,62.38,30,79,9.66,broken clouds
338,Susanino,RU,58.1461,41.5872,34.95,98,100,14.9,light snow
339,Phan Thiet,VN,10.9333,108.1,82.18,78,97,8.86,overcast clouds
340,Sungairaya,ID,0.7,108.9,85.35,61,100,1.5,overcast clouds
341,Luanda,AO,-8.8368,13.2343,77.23,85,99,8.86,overcast clouds
342,Marawi,PH,7.9986,124.2928,75.65,67,84,4.27,broken clouds
343,Plettenberg Bay,ZA,-34.0527,23.3716,59.29,69,34,6.46,scattered clouds
344,Fairbanks,US,64.8378,-147.7164,-12.41,75,1,0.0,clear sky
345,Goure,NE,13.9835,10.2704,68.49,15,59,9.62,broken clouds
346,Nanortalik,GL,60.1432,-45.2371,33.6,98,100,12.77,light rain
347,Ruteng,ID,-8.6136,120.4721,76.05,57,91,0.78,overcast clouds
348,Mackay,AU,-21.15,149.2,86.68,74,13,11.5,few clouds
349,Vostok,RU,46.4856,135.8833,21.34,75,100,2.15,overcast clouds
350,Mandeville,JM,18.0417,-77.5071,71.65,89,100,3.98,overcast clouds
351,Moyale,KE,3.5167,39.0584,66.25,81,83,7.85,broken clouds
352,Esmeraldas,BR,-19.7625,-44.3139,76.06,73,37,0.98,scattered clouds
353,Guarapari,BR,-20.6667,-40.4975,78.89,92,26,8.14,scattered clouds
354,Hoopstad,ZA,-27.8327,25.9083,67.15,53,4,6.44,clear sky
355,Pangnirtung,CA,66.1451,-65.7125,17.35,90,99,3.6,overcast clouds
356,Carlagan,PH,14.975,122.0456,83.43,73,96,4.5,overcast clouds
357,Syracuse,IT,37.0881,15.2792,51.39,63,2,25.7,clear sky
358,Ketchikan,US,55.3422,-131.6461,41.47,87,90,10.36,moderate rain
359,Moorhead,US,46.8739,-96.7676,35.98,80,1,5.01,clear sky
360,La Palma,US,33.8464,-118.0467,76.35,66,1,0.0,clear sky
361,Price,US,39.5994,-110.8107,47.41,52,1,8.05,clear sky
362,Kiama,AU,-34.6833,150.8667,76.24,70,99,8.99,overcast clouds
363,Kloulklubed,PW,7.0419,134.2556,86.5,74,96,5.95,light rain
364,Wanning,CN,18.8003,110.3967,76.89,60,57,18.66,broken clouds
365,Brigantine,US,39.4101,-74.3646,37.45,70,1,4.61,clear sky
366,San Luis,AR,-33.295,-66.3356,69.8,32,0,12.01,clear sky
367,Ust-Omchug,RU,61.15,149.6333,-15.14,96,100,5.53,overcast clouds
368,Hambantota,LK,6.1241,81.1185,79.14,100,20,2.3,few clouds
369,Ariquemes,BR,-9.9133,-63.0408,72.9,95,35,0.56,scattered clouds
370,Deming,US,32.2687,-107.7586,53.49,47,1,8.05,clear sky
371,Kemlya,RU,54.6963,45.2424,46.2,84,100,26.11,overcast clouds
372,Daru,PG,-9.0763,143.2092,85.15,74,94,7.14,overcast clouds
373,Kavieng,PG,-2.5744,150.7967,85.5,66,93,14.38,overcast clouds
374,Zhezkazgan,KZ,47.8043,67.7144,20.05,89,99,2.57,overcast clouds
375,Koshurnikovo,RU,54.1667,93.3,12.96,94,100,2.39,overcast clouds
376,Senno,RU,59.5336,33.9167,30.63,94,100,12.24,overcast clouds
377,Sao Gabriel Da Cachoeira,BR,-0.1303,-67.0892,74.89,92,95,0.72,overcast clouds
378,Carbonia,IT,39.1672,8.5222,41.99,57,6,17.09,clear sky
379,Saint-Pierre,RE,-21.3393,55.4781,76.68,71,0,6.91,clear sky
380,Shache,CN,38.4167,77.2406,29.53,38,29,1.68,scattered clouds
381,Castiglione Delle Stiviere,IT,45.3906,10.4853,39.47,82,75,3.44,broken clouds
382,Namibe,AO,-15.1961,12.1522,69.89,72,12,4.07,few clouds
383,Tocopilla,CL,-22.092,-70.1979,64.06,71,0,1.03,clear sky
384,Andra,RU,62.5147,65.8878,5.38,97,98,7.23,overcast clouds
385,Cabo San Lucas,MX,22.8909,-109.9124,78.51,72,100,9.64,overcast clouds
386,Puerto Escondido,MX,15.85,-97.0667,78.06,72,0,3.53,clear sky
387,Tabou,CI,4.423,-7.3528,78.35,83,29,4.47,scattered clouds
388,Ipixuna,BR,-1.7625,-48.8043,76.95,87,68,4.14,broken clouds
389,Iqaluit,CA,63.7506,-68.5145,11.93,78,90,15.99,light snow
390,Karema,TZ,-6.8205,30.4389,70.68,86,95,6.13,light rain
391,Numan,NG,9.4667,12.0333,73.35,24,42,2.44,scattered clouds
392,Sur,OM,22.5667,59.5289,72.23,72,0,6.35,clear sky
393,Smithers,CA,54.7804,-127.1743,28.72,93,90,3.44,snow
394,Bethel,US,41.3712,-73.414,34.05,70,1,3.44,clear sky
395,Port Elizabeth,ZA,-33.918,25.5701,64.09,77,0,5.75,clear sky
396,Emerald,AU,-23.5333,148.1667,71.74,88,90,4.61,light rain
397,Swan River,CA,52.1058,-101.2676,26.49,86,51,4.61,broken clouds
398,Wamba,NG,8.9333,8.6,71.82,25,51,3.71,broken clouds
399,Turan,VN,16.0678,108.2208,76.98,78,75,11.5,broken clouds
400,Darhan,MN,49.4867,105.9228,13.77,79,41,5.39,scattered clouds
401,Tanout,NE,14.9709,8.8879,67.33,16,12,11.72,few clouds
402,Sept-Iles,CA,50.2001,-66.3821,27.12,71,75,3.0,broken clouds
403,Madarounfa,NE,13.3087,7.156,68.54,15,67,9.8,broken clouds
404,Talaya,RU,61.3833,152.75,-18.65,98,100,2.8,overcast clouds
405,Tilichiki,RU,60.4667,166.1,20.5,96,100,6.38,light snow
406,Severobaykalsk,RU,55.65,109.3167,8.33,69,74,7.34,broken clouds
407,Manoel Urbano,BR,-8.8389,-69.2597,76.05,82,92,2.84,overcast clouds
408,Darnah,LY,32.767,22.6367,62.02,59,0,16.78,clear sky
409,Wanlaweyn,SO,2.6185,44.8938,73.35,78,35,8.63,scattered clouds
410,Aripuana,BR,-9.1667,-60.6333,73.45,90,80,0.67,broken clouds
411,Kahului,US,20.8947,-156.47,78.82,76,20,16.11,light rain
412,Hay River,CA,60.8156,-115.7999,-16.62,76,20,4.61,few clouds
413,Nuuk,GL,64.1835,-51.7216,34.41,93,90,43.73,light rain
414,Shieli,KZ,44.1667,66.75,37.49,35,96,2.89,overcast clouds
415,Prainha,BR,-1.8,-53.48,74.68,90,85,2.53,heavy intensity rain
416,Padang,ID,-0.9492,100.3543,84.25,71,96,4.27,overcast clouds
417,Husavik,IS,66.0449,-17.3389,22.91,89,100,8.5,overcast clouds
418,Andrews,US,32.3187,-102.5457,60.06,30,1,8.05,clear sky
419,Key West,US,24.5557,-81.7826,68.0,82,1,3.44,clear sky
420,Bogovarovo,RU,58.9785,47.0246,33.26,98,100,11.36,snow
421,Nguruka,TZ,-5.1092,31.0419,64.18,96,80,2.89,light rain
422,Zhigalovo,RU,54.8097,105.1578,20.21,91,99,3.51,light snow
423,Port Blair,IN,11.6667,92.75,83.79,71,60,12.12,broken clouds
424,Vao,NC,-22.6667,167.4833,76.91,88,8,14.65,clear sky
425,Goshogawara,JP,40.8044,140.4414,57.11,68,100,7.81,overcast clouds
426,Eureka,US,40.8021,-124.1637,50.63,96,70,4.18,broken clouds
427,Davila,PH,18.4726,120.5763,87.78,80,97,24.32,overcast clouds
428,Jiayuguan,CN,39.8167,98.3,27.5,28,97,3.11,overcast clouds
429,Ogaminana,NG,7.5946,6.2248,73.96,88,55,3.67,broken clouds
430,Odienne,CI,9.51,-7.5692,71.22,45,10,3.47,clear sky
431,At-Bashi,KG,41.1702,75.8106,13.21,69,5,2.26,clear sky
432,Starokostyantyniv,UA,49.7576,27.2034,33.1,78,100,20.89,overcast clouds
433,Tuatapere,NZ,-46.1333,167.6833,61.83,66,85,8.08,overcast clouds
434,Vanavara,RU,60.34,102.2797,-2.0,97,100,4.9,light snow
435,Puerto Del Rosario,ES,28.5004,-13.8627,64.15,72,0,16.11,clear sky
436,Talas,TR,38.6908,35.5538,47.07,76,0,2.3,clear sky
437,Portland,US,45.5234,-122.6762,57.25,94,75,1.01,broken clouds
438,Esso,RU,55.9333,158.7,15.6,90,100,3.91,overcast clouds
439,Islamkot,PK,24.6997,70.177,73.4,30,51,5.17,broken clouds
440,Asuncion,PY,-25.3007,-57.6359,67.89,68,0,4.61,clear sky
441,Port Macquarie,AU,-31.4333,152.9167,71.56,73,100,10.0,light rain
442,Pemangkat,ID,1.1667,108.9667,84.16,64,100,3.69,overcast clouds
443,Luau,AO,-10.7073,22.2247,63.41,98,100,3.09,overcast clouds
444,Riviere-Au-Renard,CA,48.9957,-64.3971,33.8,97,100,16.2,snow
445,Minbu,MM,20.1833,94.8833,77.54,60,81,10.85,broken clouds
446,Egvekinot,RU,66.3167,-179.1667,-10.44,76,92,4.74,overcast clouds
447,Cambrils,ES,41.0748,1.0524,53.73,80,0,1.01,clear sky
448,Buraydah,SA,26.326,43.975,52.25,28,35,4.83,scattered clouds
449,Touros,BR,-5.1989,-35.4608,81.5,78,46,12.15,scattered clouds
450,Oranjemund,NA,-28.55,16.4333,60.3,93,6,5.99,clear sky
451,Medzilaborce,SK,49.2719,21.9007,33.98,96,53,0.72,broken clouds
452,Wangkui,CN,46.8333,126.5,14.27,90,96,4.85,overcast clouds
453,Lahat,ID,-3.8,103.5333,78.1,78,90,2.06,overcast clouds
454,Shanghai,CN,31.2222,121.4581,53.47,62,40,3.0,scattered clouds
455,Sesheke,ZM,-17.4759,24.2968,72.43,59,69,4.72,broken clouds
456,Nishihara,JP,26.1842,127.7558,76.68,80,75,17.27,broken clouds
457,Te Anau,NZ,-45.4167,167.7167,70.47,39,46,3.22,scattered clouds
458,Kaniama,CD,-7.5667,24.1833,64.56,97,100,2.66,overcast clouds
459,Huadian,CN,42.9633,126.7478,25.34,93,100,6.55,light snow
460,Salalah,OM,17.0151,54.0924,75.29,22,0,9.22,clear sky
461,Springfield,US,37.2153,-93.2982,54.18,65,1,5.01,clear sky
462,Prince Rupert,CA,54.3161,-130.3201,46.49,87,90,13.8,moderate rain
463,Xichang,CN,27.8964,102.2634,50.18,66,93,1.39,overcast clouds
464,Necochea,AR,-38.5473,-58.7368,55.04,78,0,11.81,clear sky
465,Mumford,GH,5.2618,-0.759,79.3,84,98,7.23,light rain
466,Angul,IN,20.85,85.1,68.38,53,40,4.29,scattered clouds
467,Jhudo,PK,24.964,69.2968,72.57,34,59,2.53,broken clouds
468,Luvianos,MX,18.9167,-100.4,63.01,67,2,4.14,clear sky
469,Kaa-Khem,RU,51.6833,94.7333,5.27,93,82,1.95,broken clouds
470,Saint-Augustin,CA,51.226,-58.6502,32.25,99,100,14.76,snow
471,Henties Bay,NA,-22.116,14.2845,59.86,94,1,6.89,clear sky
472,Xining,CN,36.6167,101.7667,24.15,33,9,2.17,clear sky
473,Sola,VU,-13.8833,167.55,82.0,74,100,6.98,overcast clouds
474,Holme,DK,56.1138,10.1725,35.64,93,100,19.15,light snow
475,Walvis Bay,NA,-22.9575,14.5053,60.1,94,0,2.3,clear sky
476,Hamilton,US,39.1834,-84.5333,42.24,44,20,1.99,few clouds
477,Cherskiy,RU,68.75,161.3,-11.92,99,100,4.34,light snow
478,Kefamenanu,ID,-9.4467,124.4781,87.48,47,92,2.93,overcast clouds
479,Ichinohe,JP,40.2069,141.3017,53.11,65,44,6.62,scattered clouds
480,Ndola,ZM,-12.9587,28.6366,63.99,50,100,5.59,overcast clouds
481,Najran,SA,17.4924,44.1277,52.45,54,0,2.24,clear sky
482,Itoman,JP,26.1247,127.6694,77.4,80,75,16.11,broken clouds
483,La Romana,DO,18.4273,-68.9728,76.73,100,40,0.0,scattered clouds
484,Jacareacanga,BR,-6.2222,-57.7528,74.23,95,83,1.34,broken clouds
485,Otjiwarongo,NA,-20.4637,16.6477,63.16,19,12,2.28,few clouds
486,Muzhi,RU,65.3667,64.6667,3.65,81,44,11.56,scattered clouds
487,Flinders,AU,-34.5833,150.8552,76.05,73,100,11.83,overcast clouds
488,Luena,AO,-11.7833,19.9167,61.03,98,100,3.85,light rain
489,Maningrida,AU,-12.0667,134.2667,94.82,44,95,7.56,overcast clouds
490,Zabol,AF,32.25,67.25,41.13,36,88,4.34,overcast clouds
491,Nurota,UZ,40.5614,65.6886,35.69,47,56,3.29,broken clouds
492,Denham Springs,US,30.4869,-90.9562,49.93,89,1,0.0,clear sky
493,Estelle,US,29.8458,-90.1067,55.99,71,1,0.0,clear sky
494,Nabire,ID,-3.3667,135.4833,88.72,60,97,4.34,overcast clouds
495,Mbanza-Ngungu,CD,-5.25,14.8667,67.46,96,100,3.15,overcast clouds
496,Matara,LK,5.9485,80.5353,79.61,84,82,2.24,broken clouds
497,Geraldton,AU,-28.7667,114.6,76.12,53,75,18.41,broken clouds
498,Yulara,AU,-25.2406,130.9889,93.04,13,0,11.5,clear sky
499,Camana,PE,-16.6228,-72.7111,66.36,84,47,7.45,scattered clouds
500,Oranjestad,AW,12.524,-70.027,82.35,78,40,12.66,scattered clouds
501,Nizhniy Ingash,RU,56.2,96.53,24.89,80,97,10.16,overcast clouds
502,Mugur-Aksy,RU,50.35,90.5,11.37,69,16,5.19,few clouds
503,Menongue,AO,-14.6585,17.691,63.03,93,98,2.86,overcast clouds
504,Cap Malheureux,MU,-19.9842,57.6142,80.47,66,6,3.0,clear sky
505,Nuevo Progreso,MX,23.1667,-97.95,67.59,83,1,4.07,clear sky
506,Harper,LR,4.375,-7.7169,78.49,83,68,4.27,broken clouds
507,Yaan,NG,7.3833,8.5667,74.32,79,69,4.16,broken clouds
508,Kalmunai,LK,7.4167,81.8167,80.74,77,97,4.61,overcast clouds
509,Caucaia,BR,-3.7361,-38.6531,84.07,77,75,11.5,broken clouds
510,Arlit,NE,18.7369,7.3853,70.65,19,68,5.3,broken clouds
511,Kirkenes,NO,69.7271,30.0458,7.75,92,100,13.8,overcast clouds
512,Qasigiannguit,GL,68.8193,-51.1922,30.45,93,100,5.35,light snow
513,Nadym,RU,65.5333,72.5167,-1.41,98,93,8.66,overcast clouds
514,Joshimath,IN,30.5667,79.5667,56.77,16,25,6.11,scattered clouds
515,Soloneshnoye,RU,51.6544,84.3197,20.62,81,100,5.41,overcast clouds
516,Vershino-Shakhtaminskiy,RU,51.3012,117.8868,8.46,81,87,2.66,overcast clouds
517,Lazurne,UA,46.084,32.5295,48.09,71,97,11.36,overcast clouds
518,Saint Pete Beach,US,27.7253,-82.7412,62.6,65,1,8.05,clear sky
519,Olafsvik,IS,64.8945,-23.7142,31.32,91,100,10.49,light snow
520,Nobres,BR,-14.7203,-56.3275,75.83,86,99,1.39,overcast clouds
521,Rosetta,EG,31.4044,30.4164,62.42,48,100,9.31,overcast clouds
522,Mariel,CU,22.9875,-82.7536,71.74,65,100,11.86,light rain
523,Drumheller,CA,51.4617,-112.7101,40.86,93,72,2.3,broken clouds
524,Bagotville,AU,-28.9833,153.4167,71.42,98,100,9.46,moderate rain
525,Koslan,RU,63.4564,48.8989,3.99,92,100,9.73,overcast clouds
526,Bandipur,NP,27.9333,84.4167,55.54,59,95,1.43,overcast clouds
527,Surgut,RU,61.25,73.4167,26.78,86,90,11.01,light snow
528,Itanhandu,BR,-22.2958,-44.9347,67.75,89,99,0.96,overcast clouds
529,Ornes,NO,66.8689,13.7078,23.11,77,100,9.13,overcast clouds
530,Bairnsdale,AU,-37.8333,147.6167,83.46,61,1,5.01,clear sky
531,Kununurra,AU,-15.7667,128.7333,100.38,23,2,5.75,clear sky
532,Zhuhai,CN,22.2769,113.5678,75.9,60,0,21.85,clear sky
533,Vilyuysk,RU,63.7553,121.6247,-8.66,97,100,2.48,overcast clouds
534,Xuddur,SO,4.1213,43.8894,69.46,69,50,14.81,scattered clouds
535,Ondjiva,AO,-17.0667,15.7333,67.53,71,16,2.64,few clouds
536,Ahipara,NZ,-35.1667,173.1667,70.16,64,38,7.78,scattered clouds
537,San Julian,MX,21.0167,-102.1667,59.47,48,9,1.21,clear sky
538,Timra,SE,62.487,17.3257,16.68,82,75,12.66,broken clouds
539,Komsomolskiy,UZ,40.4272,71.7189,33.22,74,100,6.91,mist
540,Nichinan,JP,31.6,131.3667,63.55,69,31,16.33,scattered clouds
541,Begoro,GH,6.3871,-0.3774,70.79,95,58,3.22,broken clouds
542,Bubaque,GW,11.2833,-15.8333,82.62,62,86,6.82,overcast clouds
543,Campbeltown,GB,55.4258,-5.6076,50.05,93,75,20.71,broken clouds
544,Pangai,TO,-19.8,-174.35,78.91,61,75,17.27,broken clouds
545,Morondava,MG,-20.2833,44.2833,73.78,81,1,4.23,clear sky
546,Hope,US,33.6671,-93.5916,57.25,75,0,5.99,clear sky
547,Ampanihy,MG,-24.7,44.75,66.72,82,2,2.48,clear sky
548,Jining,CN,35.405,116.5814,44.06,36,1,19.98,clear sky
549,Rosetown,CA,51.5501,-108.0014,31.98,80,36,5.75,scattered clouds
550,Canutama,BR,-6.5339,-64.3831,76.21,89,37,2.44,scattered clouds
551,Altamira,BR,-3.2033,-52.2064,74.14,92,65,3.06,broken clouds
552,Rocha,UY,-34.4833,-54.3333,63.1,94,99,18.75,overcast clouds
553,Isangel,VU,-19.55,169.2667,83.62,71,95,5.79,overcast clouds
554,Beringovskiy,RU,63.05,179.3167,5.04,96,96,6.42,overcast clouds
555,Mayumba,GA,-3.432,10.6554,76.5,91,100,8.16,overcast clouds
556,Katsuura,JP,35.1333,140.3,61.2,61,99,19.39,overcast clouds
557,Ust-Maya,RU,60.4167,134.5333,-5.66,94,99,2.57,overcast clouds
558,Katherine,AU,-14.4667,132.2667,102.52,18,40,10.36,scattered clouds
559,Batsfjord,NO,70.6345,29.7185,17.58,90,78,25.61,broken clouds
560,Ajuchitlan,MX,20.7167,-100.0167,53.26,80,6,6.64,clear sky
561,Ishigaki,JP,24.3448,124.1572,77.13,83,75,4.61,broken clouds
562,Liaozhong,CN,41.5061,122.7242,28.89,60,97,16.06,overcast clouds
563,Vanimo,PG,-2.6741,141.3028,86.36,66,100,4.47,overcast clouds
564,Novikovo,RU,51.1537,37.8879,46.2,73,100,20.2,overcast clouds
565,Kibakwe,TZ,-6.7167,36.3667,63.28,93,73,3.38,broken clouds
566,Longyan,CN,25.1072,117.0225,66.47,52,8,7.96,clear sky
567,Maceio,BR,-9.6658,-35.7353,80.04,83,20,5.75,few clouds
568,Cozumel,MX,20.5083,-86.9458,75.94,93,75,7.0,broken clouds
569,Camacha,PT,33.0833,-16.3333,57.96,77,40,5.75,scattered clouds
570,Yanam,IN,16.7333,82.2167,77.4,69,100,6.58,overcast clouds
571,Vila,PT,42.0304,-8.1588,36.73,93,100,1.66,overcast clouds
572,Sebinkarahisar,TR,40.2883,38.4236,48.43,63,100,6.17,overcast clouds
573,Hvide Sande,DK,56.0045,8.1294,44.89,77,100,36.37,overcast clouds
574,Chibombo,ZM,-14.6569,28.0706,66.4,44,100,6.08,overcast clouds
575,Havre-Saint-Pierre,CA,50.2334,-63.5986,30.2,93,90,10.36,light snow
576,Mantua,IT,45.1667,10.7833,39.81,80,2,3.0,clear sky
577,Zeya,RU,53.75,127.2667,11.14,65,90,1.97,overcast clouds
578,Manono,CD,-7.3,27.4167,67.6,97,100,2.35,light rain
579,Aquiraz,BR,-3.9014,-38.3911,84.22,70,47,11.27,scattered clouds
580,Miles City,US,46.4083,-105.8406,49.51,61,90,9.22,overcast clouds
581,Noyabrsk,RU,63.1994,75.4507,9.28,95,98,10.94,overcast clouds
582,Hami,CN,42.8,93.45,26.49,52,23,2.44,few clouds
583,Lokvine,BA,44.2047,17.8564,31.41,96,100,5.19,snow
584,Stornoway,GB,58.2093,-6.3865,42.93,94,75,1.01,broken clouds
585,Fare,PF,-16.7,-151.0167,79.66,80,100,17.4,moderate rain
586,De-Kastri,RU,51.4667,140.7833,21.88,73,100,6.38,overcast clouds
587,Mujiayingzi,CN,42.1167,118.7833,23.31,38,0,20.71,clear sky
588,High Level,CA,58.5169,-117.136,1.51,92,90,2.3,overcast clouds
589,Harrison,US,30.4091,-89.0436,46.47,85,1,0.0,clear sky
590,Porto Novo,BJ,6.4965,2.6036,80.42,87,93,4.63,moderate rain
591,Rio Grande,BR,-32.035,-52.0986,67.33,80,100,22.03,overcast clouds
592,Thiruvananthapuram,IN,8.4833,76.9167,78.78,89,75,3.44,mist
593,Wajir,KE,1.7471,40.0573,75.31,85,80,11.25,light rain
594,Bathsheba,BB,13.2167,-59.5167,81.21,78,20,13.8,few clouds
595,Kharan,PK,28.5833,65.4167,59.85,27,0,3.44,clear sky
596,Ulladulla,AU,-35.35,150.4667,83.77,69,47,12.19,scattered clouds
597,Gamba,GA,-2.65,10.0,75.96,91,100,6.67,overcast clouds
598,Hohoe,GH,7.1518,0.4736,74.5,91,11,3.6,few clouds
599,Mount Barker,AU,-35.0667,138.8667,89.37,27,15,9.8,few clouds
600,Ionia,US,42.9873,-85.0711,32.49,97,90,10.36,snow
601,Reo,BF,12.3167,-2.4667,74.73,15,16,8.5,few clouds
602,Mikasa,JP,43.251,141.9043,51.35,82,100,5.59,overcast clouds
603,Itarsi,IN,22.6167,77.75,63.36,48,74,5.03,broken clouds
604,Kailua,US,21.4022,-157.7394,82.38,69,40,16.11,scattered clouds
605,Vila Franca Do Campo,PT,37.7167,-25.4333,62.2,76,78,5.5,broken clouds
606,Khorinsk,RU,52.1657,109.7726,18.75,75,69,8.93,broken clouds
607,Andenes,NO,69.3143,16.1194,26.58,68,100,16.11,overcast clouds
608,Bosaso,SO,11.2842,49.1816,74.88,71,0,4.29,clear sky
609,Bereda,ES,43.2686,-7.5406,49.01,100,100,1.7,overcast clouds
610,Soroti,UG,1.7146,33.6111,64.54,90,99,3.8,light rain
611,Okha,RU,53.5739,142.9478,16.95,67,100,11.01,overcast clouds
612,Eyl,SO,7.9803,49.8164,73.44,77,32,13.29,scattered clouds
613,Harsin,IR,34.2721,47.5861,34.61,61,0,4.21,clear sky
614,Porgera,PG,-5.4667,143.2,53.69,86,89,2.3,overcast clouds
615,Barra Do Garcas,BR,-15.89,-52.2567,77.58,88,0,0.0,clear sky
616,Naravarikuppam,IN,13.1956,80.1742,82.89,90,91,9.57,overcast clouds
617,Taitung,TW,22.7583,121.1444,77.27,78,75,3.44,broken clouds
618,Guiong,PH,6.4186,122.0258,84.02,73,84,8.16,broken clouds
619,Cairns,AU,-16.9167,145.7667,96.06,73,12,11.5,few clouds
620,Beaupre,CA,47.0443,-70.8953,24.62,73,92,6.91,overcast clouds
621,Surt,LY,31.2089,16.5887,58.84,44,2,16.87,clear sky
622,Saint-Georges,GD,12.0564,-61.7485,78.48,78,20,8.05,few clouds
623,Muravlenko,RU,63.7898,74.523,-2.42,95,76,12.91,broken clouds
624,Tambura,SS,5.6,27.4667,70.32,86,100,3.74,overcast clouds
625,Buala,SB,-8.145,159.5921,85.12,70,67,3.47,light rain
626,Palmer,US,42.1584,-72.3287,31.6,67,75,1.01,broken clouds
627,Kidal,ML,18.4411,1.4078,74.97,17,36,8.32,scattered clouds
628,Bitung,ID,1.4451,125.1824,77.85,84,100,2.28,light rain
629,Kamaishi,JP,39.2667,141.8833,49.15,51,35,9.69,scattered clouds
630,Teshie,GH,5.5836,-0.1072,79.36,89,0,6.91,clear sky
631,Halifax,CA,44.6453,-63.5724,42.8,95,100,8.01,overcast clouds
632,Vermilion,US,40.1667,-87.7506,42.96,61,1,5.01,clear sky
633,Mareeba,AU,-17.0,145.4333,91.33,56,33,8.57,scattered clouds
634,Shepsi,RU,44.0361,39.1489,57.09,93,100,17.87,light rain
635,Kalianget,ID,-7.05,113.9333,78.1,88,100,8.08,overcast clouds
636,Atbasar,KZ,51.8,68.3333,3.58,97,17,3.6,few clouds
637,Iralaya,HN,15.0,-83.2333,77.67,69,100,14.03,overcast clouds
638,Gagra,GE,43.3283,40.2239,59.92,82,100,4.79,overcast clouds
639,Yumen,CN,40.2833,97.2,22.26,54,55,14.85,broken clouds
640,Yazman,PK,29.1212,71.7446,65.68,27,0,4.88,clear sky
641,Petropavlovsk-Kamchatskiy,RU,53.0452,158.6483,27.19,69,75,8.95,broken clouds
642,Javanrud,IR,34.7961,46.5172,45.59,57,3,3.8,clear sky
643,Severo-Yeniseyskiy,RU,60.3725,93.0408,13.91,88,100,15.84,overcast clouds
644,Zharkent,KZ,44.1628,80.0,29.73,39,11,2.62,few clouds
645,Chimbote,PE,-9.0853,-78.5783,65.8,85,100,7.31,overcast clouds
646,Zelenoborskiy,RU,66.845,32.3622,14.22,85,100,8.79,overcast clouds
647,Port Hedland,AU,-20.3167,118.5667,95.05,55,0,16.11,clear sky
648,Novobirilyussy,RU,56.9514,90.6661,22.1,77,100,11.3,overcast clouds
649,Marrakesh,MA,31.6315,-8.0083,44.67,65,0,4.61,clear sky
650,Warri,NG,5.5167,5.75,75.67,92,66,2.35,light rain
651,Rimbey,CA,52.6334,-114.2353,30.72,79,97,8.43,overcast clouds
652,Akyab,MM,20.15,92.9,77.4,63,30,5.37,scattered clouds
653,Puerto Madero,MX,14.7208,-92.4215,79.14,69,0,4.16,clear sky
654,Shimoda,JP,34.6667,138.95,62.96,58,75,12.21,broken clouds
655,Grand Gaube,MU,-20.0064,57.6608,80.38,66,9,3.0,clear sky
656,Mpongwe,ZM,-13.5091,28.155,66.16,46,100,5.66,overcast clouds
657,Rizhao,CN,35.4275,119.4553,45.5,51,5,20.76,clear sky
658,Umred,IN,20.85,79.3333,61.09,44,83,8.28,broken clouds
659,Sechura,PE,-5.5569,-80.8222,67.37,78,100,13.58,overcast clouds
660,Llangefni,GB,53.2556,-4.3106,51.73,87,90,18.41,light rain
661,Along,IN,28.1667,94.7667,66.47,41,48,0.58,scattered clouds
662,Huarmey,PE,-10.0681,-78.1522,66.87,84,82,7.99,broken clouds
663,Narasannapeta,IN,18.4167,84.05,73.92,61,23,5.68,few clouds
664,Casa Nova,BR,-9.4167,-41.1333,75.18,61,90,1.68,light rain
665,Korla,CN,41.7597,86.1469,23.58,67,17,5.12,few clouds
666,Turbat,PK,26.0023,63.044,70.21,33,0,4.9,clear sky
667,Beira,MZ,-19.8436,34.8389,69.89,88,0,1.99,clear sky
668,Kandrian,PG,-6.2167,149.55,84.45,77,100,8.12,moderate rain
669,Vocklamarkt,AT,48.0025,13.4838,33.04,77,100,8.99,light snow
670,New Milford,US,40.9327,-74.0179,35.87,67,1,4.0,clear sky
671,Kropotkin,RU,45.4375,40.5756,54.52,89,100,17.02,moderate rain
672,Coracao De Jesus,BR,-16.6853,-44.365,70.52,88,91,4.56,overcast clouds
673,Bolu,TR,40.6667,31.5833,48.74,76,65,7.23,broken clouds
674,Eregli,TR,37.5133,34.0467,63.19,30,100,25.08,overcast clouds
675,Nador,MA,35.174,-2.9287,59.25,67,40,9.22,scattered clouds
676,Bonthe,SL,7.5264,-12.505,79.43,82,100,6.2,overcast clouds
677,Balaipungut,ID,1.05,101.2833,84.61,57,95,4.47,overcast clouds
678,Guymon,US,36.6828,-101.4816,59.0,29,1,3.44,clear sky
679,Bay Roberts,CA,47.5999,-53.2648,47.05,89,94,1.99,overcast clouds
680,Deputatskiy,RU,69.3,139.9,-15.23,97,100,4.7,overcast clouds
681,Cypress Lake,US,26.5381,-81.8992,66.0,78,1,1.01,clear sky
682,Suoyarvi,RU,62.0833,32.35,16.81,93,100,14.67,snow
683,Wattegama,LK,6.7989,81.4808,77.92,83,100,3.8,overcast clouds
684,Synya,RU,65.3718,58.0387,-12.32,100,98,1.45,overcast clouds
685,Khamamatyurt,RU,43.6081,46.5006,37.42,83,55,8.28,broken clouds
686,Pyapon,MM,16.2833,95.6833,79.05,69,100,11.25,overcast clouds
687,Sume,BR,-7.6717,-36.88,74.3,76,83,11.34,broken clouds
688,Dargaville,NZ,-35.9333,173.8833,70.25,67,78,8.1,broken clouds
689,Beya,RU,53.0533,90.9139,21.51,78,96,5.14,overcast clouds
690,Srednekolymsk,RU,67.45,153.6833,-19.17,98,100,6.51,overcast clouds
